[
    {
        "id": 2755,
        "name": "Crawford Brew Works",
        "brewery_type": "micro",
        "street": "3659 Devils Glen Rd",
        "city": "Bettendorf",
        "state": "Iowa",
        "postal_code": "52722",
        "country": "United States",
        "longitude": "-90.483443779661",
        "latitude": "41.5592441864407",
        "phone": "",
        "website_url": "",
        "updated_at": "2018-08-24T00:33:55.965Z",
        "tag_list": []
    },
    {
        "id": 2756,
        "name": "Deb's Brewtopia",
        "brewery_type": "micro",
        "street": "106 Cedar St",
        "city": "Elkader",
        "state": "Iowa",
        "postal_code": "52043",
        "country": "United States",
        "longitude": "-91.4060835272074",
        "latitude": "42.8548668119706",
        "phone": "5632453737",
        "website_url": "http://www.debsbrewtopia.com",
        "updated_at": "2018-08-24T00:33:56.500Z",
        "tag_list": []
    },
    {
        "id": 2769,
        "name": "Franklin Street Brewing Company",
        "brewery_type": "micro",
        "street": "116 S Franklin St",
        "city": "Manchester",
        "state": "Iowa",
        "postal_code": "52057-2121",
        "country": "United States",
        "longitude": "-91.4577792857143",
        "latitude": "42.483293244898",
        "phone": "5639272722",
        "website_url": "http://www.franklinstreetbrewing.com",
        "updated_at": "2018-08-24T00:37:54.640Z",
        "tag_list": []
    },
    {
        "id": 2800,
        "name": "Pulpit Rock Brewing Co.",
        "brewery_type": "micro",
        "street": "207 College Dr",
        "city": "Decorah",
        "state": "Iowa",
        "postal_code": "52101-1304",
        "country": "United States",
        "longitude": "-91.7962545003461",
        "latitude": "43.3065402420925",
        "phone": "5633803610",
        "website_url": "http://www.pulpitrockbrewing.net",
        "updated_at": "2018-08-24T00:38:09.224Z",
        "tag_list": []
    },
    {
        "id": 2817,
        "name": "Twisted Vine Brewery",
        "brewery_type": "micro",
        "street": "3320 Westown Pkwy",
        "city": "West Des Moines",
        "state": "Iowa",
        "postal_code": "50266-1111",
        "country": "United States",
        "longitude": "-93.7489517002412",
        "latitude": "41.5936597",
        "phone": "5157202940",
        "website_url": "http://www.twistedvinebrewery.com",
        "updated_at": "2018-08-24T00:38:17.525Z",
        "tag_list": []
    },
    {
        "id": 2737,
        "name": "Alluvial Brewing Company",
        "brewery_type": "micro",
        "street": "3715 W 190th St",
        "city": "Ames",
        "state": "Iowa",
        "postal_code": "50014-9316",
        "country": "United States",
        "longitude": null,
        "latitude": null,
        "phone": "515337118",
        "website_url": "http://www.alluvialbrewing.com",
        "updated_at": "2018-08-11T21:37:22.756Z",
        "tag_list": []
    },
    {
        "id": 2744,
        "name": "Big Rack Brew Haus",
        "brewery_type": "micro",
        "street": "2475 Hiatt Apple Trl",
        "city": "Winterset",
        "state": "Iowa",
        "postal_code": "50273-8113",
        "country": "United States",
        "longitude": null,
        "latitude": null,
        "phone": "",
        "website_url": "http://www.bigrackbrewhaus.com",
        "updated_at": "2018-08-11T21:37:22.966Z",
        "tag_list": []
    },
    {
        "id": 2752,
        "name": "Confluence Brewing Co",
        "brewery_type": "micro",
        "street": "1235 Thomas Beck Rd Ste A",
        "city": "Des Moines",
        "state": "Iowa",
        "postal_code": "50315-1055",
        "country": "United States",
        "longitude": null,
        "latitude": null,
        "phone": "5152859005",
        "website_url": "http://www.confluencebrewing.com",
        "updated_at": "2018-08-11T21:37:23.225Z",
        "tag_list": []
    },
    {
        "id": 2733,
        "name": "5 Alarm Brewing Co",
        "brewery_type": "micro",
        "street": "211 W Main St",
        "city": "Lake Mills",
        "state": "Iowa",
        "postal_code": "50450",
        "country": "United States",
        "longitude": "-93.533987877403",
        "latitude": "43.4192661500845",
        "phone": "6415922739",
        "website_url": "",
        "updated_at": "2018-08-24T00:33:42.982Z",
        "tag_list": []
    },
    {
        "id": 2734,
        "name": "515 Brewing Co",
        "brewery_type": "micro",
        "street": "7700 University Ave",
        "city": "Clive",
        "state": "Iowa",
        "postal_code": "50325-1271",
        "country": "United States",
        "longitude": "-93.7228408",
        "latitude": "41.599992",
        "phone": "5156614615",
        "website_url": "http://www.515brewing.com",
        "updated_at": "2018-08-24T00:33:43.585Z",
        "tag_list": []
    },
    {
        "id": 2738,
        "name": "Backpocket Brewing Co",
        "brewery_type": "micro",
        "street": "903 Quarry Rd",
        "city": "Coralville",
        "state": "Iowa",
        "postal_code": "52241-2208",
        "country": "United States",
        "longitude": "-91.5598133684211",
        "latitude": "41.6813948421053",
        "phone": "3194493700",
        "website_url": "http://www.backpocketbrewing.com",
        "updated_at": "2018-08-24T00:33:45.669Z",
        "tag_list": []
    },
    {
        "id": 2739,
        "name": "BackRoad Brewery",
        "brewery_type": "micro",
        "street": "90 School St",
        "city": "Carlisle",
        "state": "Iowa",
        "postal_code": "50047",
        "country": "United States",
        "longitude": "-93.4853176666667",
        "latitude": "41.498501",
        "phone": "5152102096",
        "website_url": "http://www.backroadbeer.com",
        "updated_at": "2018-08-24T00:33:46.190Z",
        "tag_list": []
    },
    {
        "id": 2742,
        "name": "Big Grove Brewery",
        "brewery_type": "micro",
        "street": "1225 S Gilbert St",
        "city": "Iowa City",
        "state": "Iowa",
        "postal_code": "52240-4507",
        "country": "United States",
        "longitude": "-91.5318982755102",
        "latitude": "41.6471329897959",
        "phone": "3195941891",
        "website_url": "http://www.biggrovebrewery.com",
        "updated_at": "2018-08-24T00:33:47.933Z",
        "tag_list": []
    }
]
