[
    {
        "id": 2817,
        "name": "Twisted Vine Brewery",
        "brewery_type": "micro",
        "street": "3320 Westown Pkwy",
        "city": "West Des Moines",
        "state": "Iowa",
        "postal_code": "50266-1111",
        "country": "United States",
        "longitude": "-93.7489517002412",
        "latitude": "41.5936597",
        "phone": "5157202940",
        "website_url": "http://www.twistedvinebrewery.com",
        "updated_at": "2018-08-24T00:38:17.525Z",
        "tag_list": []
    },
    {
        "id": 2752,
        "name": "Confluence Brewing Co",
        "brewery_type": "micro",
        "street": "1235 Thomas Beck Rd Ste A",
        "city": "Des Moines",
        "state": "Iowa",
        "postal_code": "50315-1055",
        "country": "United States",
        "longitude": null,
        "latitude": null,
        "phone": "5152859005",
        "website_url": "http://www.confluencebrewing.com",
        "updated_at": "2018-08-11T21:37:23.225Z",
        "tag_list": []
    },
    {
        "id": 2740,
        "name": "Barn Town Brewing Co.",
        "brewery_type": "brewpub",
        "street": "9500 University Ave",
        "city": "West Des Moines",
        "state": "Iowa",
        "postal_code": "50266-1888",
        "country": "United States",
        "longitude": "-93.8385143",
        "latitude": "41.5996472",
        "phone": "5159786767",
        "website_url": "",
        "updated_at": "2018-08-24T00:33:46.685Z",
        "tag_list": []
    },
    {
        "id": 2754,
        "name": "Court Avenue Brewing Co",
        "brewery_type": "brewpub",
        "street": "309 Court Ave Ste 100",
        "city": "Des Moines",
        "state": "Iowa",
        "postal_code": "50309-2230",
        "country": "United States",
        "longitude": null,
        "latitude": null,
        "phone": "5152822739",
        "website_url": "http://www.courtavebrew.com",
        "updated_at": "2018-08-11T21:37:23.294Z",
        "tag_list": []
    },
    {
        "id": 2767,
        "name": "Flix Brewhouse",
        "brewery_type": "brewpub",
        "street": "3800 Merle Hay Rd",
        "city": "Des Moines",
        "state": "Iowa",
        "postal_code": "50310-1305",
        "country": "United States",
        "longitude": "-93.6997831",
        "latitude": "41.6306427",
        "phone": "5122442739",
        "website_url": "",
        "updated_at": "2018-08-24T00:37:53.597Z",
        "tag_list": []
    },
    {
        "id": 2768,
        "name": "Fox Brewing",
        "brewery_type": "micro",
        "street": "103 S 11th St",
        "city": "West Des Moines",
        "state": "Iowa",
        "postal_code": "50265-4410",
        "country": "United States",
        "longitude": "-93.718210375",
        "latitude": "41.569708625",
        "phone": "5156350323",
        "website_url": "http://www.foxbrewco.com",
        "updated_at": "2018-08-24T00:37:54.139Z",
        "tag_list": []
    },
    {
        "id": 2788,
        "name": "Madhouse Brewing Co",
        "brewery_type": "micro",
        "street": "501 Scott Ave",
        "city": "Des Moines",
        "state": "Iowa",
        "postal_code": "50309-5047",
        "country": "United States",
        "longitude": "-93.6076690652753",
        "latitude": "41.58113315",
        "phone": "9165017014",
        "website_url": "http://www.madhousebeer.com",
        "updated_at": "2018-08-24T00:38:03.135Z",
        "tag_list": []
    },
    {
        "id": 2761,
        "name": "Exile Brewing",
        "brewery_type": "micro",
        "street": "1514 Walnut St",
        "city": "Des Moines",
        "state": "Iowa",
        "postal_code": "50309-3420",
        "country": "United States",
        "longitude": "-93.6370215944771",
        "latitude": "41.5830167",
        "phone": "5158832337",
        "website_url": "http://www.exilebrewing.com",
        "updated_at": "2018-08-24T00:37:50.711Z",
        "tag_list": []
    }
]
